City_ID,city,latitude,longitude,max temp,city humidity,cloudiness,wind speed,country,date
0,adamstown,-25.066,-130.1015,77.31,82,100,13.76,PN,1710362300
1,puerto natales,-51.7236,-72.4875,48.65,61,75,21.85,CL,1710362301
2,college,64.8569,-147.8028,4.17,55,40,1.99,US,1710362301
3,pali,25.7667,73.3333,68.52,35,0,4.52,IN,1710362301
4,kristiansund,63.1115,7.732,44.65,87,75,12.66,NO,1710362302
5,santa maria,-29.6842,-53.8069,88.9,66,0,4.61,BR,1710362302
6,marka,1.7159,44.7717,82.33,80,16,14.29,SO,1710362302
7,menaka,15.9182,2.4022,93.47,9,60,9.66,ML,1710362302
8,pawni,20.7833,79.6333,78.6,19,4,7.27,IN,1710362303
9,uzgen,40.7699,73.3007,35.89,77,96,5.1,KG,1710362303
10,hermanus,-34.4187,19.2345,64.36,76,19,3.89,ZA,1710362303
11,ribeira grande,38.5167,-28.7,63.0,88,40,17.0,PT,1710362303
12,alice springs,-23.7,133.8833,67.55,52,53,4.61,AU,1710362304
13,saipan,15.1355,145.701,79.5,78,75,12.66,MP,1710362304
14,adrar,20.5022,-10.0711,76.71,13,0,10.51,MR,1710362304
15,mchinji,-13.7984,32.8802,66.9,96,100,3.83,MW,1710362305
16,kolonia,50.9333,6.95,54.97,82,100,1.14,DE,1710362305
17,arteche,12.2645,125.4048,76.44,82,82,7.76,PH,1710362305
18,talnakh,69.4865,88.3972,2.21,92,100,15.21,RU,1710362305
19,thompson,55.7435,-97.8558,15.96,92,100,8.05,CA,1710362306
20,bilibino,68.0546,166.4372,-4.09,93,100,2.93,RU,1710362306
21,arenapolis,-14.4503,-56.8461,83.77,72,97,1.54,BR,1710362306
22,invercargill,-46.4,168.35,49.01,81,100,8.01,NZ,1710362307
23,rio grande,-32.035,-52.0986,82.51,84,100,10.58,BR,1710362307
24,wailua homesteads,22.0669,-159.378,70.23,91,100,5.75,US,1710362307
25,waitangi,-43.9535,-176.5597,55.81,89,88,5.99,NZ,1710362308
26,bayganin,48.6947,55.8742,23.97,85,100,5.26,KZ,1710362308
27,constitucion,-35.3333,-72.4167,64.29,55,0,15.88,CL,1710362309
28,la'ie,21.6477,-157.9253,82.36,88,2,1.01,US,1710362260
29,stanley,54.868,-1.6985,53.19,92,40,12.66,GB,1710362309
30,carnarvon,-24.8667,113.6333,80.73,73,85,12.95,AU,1710362309
31,petropavlovsk-kamchatsky,53.0452,158.6483,27.19,75,100,26.84,RU,1710362310
32,mossel bay,-34.1831,22.146,60.73,78,16,5.21,ZA,1710362310
33,aral,40.5156,81.2636,49.12,26,100,2.55,CN,1710362310
34,sitka,57.0531,-135.33,42.69,65,75,19.57,US,1710362310
35,bethel,41.3712,-73.414,67.77,40,0,14.97,US,1710362311
36,kailua-kona,19.6406,-155.9956,81.5,75,75,5.75,US,1710362311
37,pavilosta,56.8879,21.1859,39.11,96,99,10.18,LV,1710362311
38,chonchi,-42.6128,-73.8092,60.12,70,15,8.01,CL,1710362312
39,ulladulla,-35.35,150.4667,69.21,80,70,5.1,AU,1710362312
40,angaur state,6.906,134.13,81.3,72,91,19.98,PW,1710362312
41,iqaluit,63.7506,-68.5145,-6.07,77,100,2.3,CA,1710362313
42,ilulissat,69.2167,-51.1,15.82,86,75,3.44,GL,1710362313
43,isafjordur,66.0755,-23.124,32.83,95,100,22.3,IS,1710362313
44,berezovyy,51.6667,135.7,11.66,97,100,1.81,RU,1710362313
45,edinburgh of the seven seas,-37.0676,-12.3116,61.48,89,100,50.58,SH,1710362314
46,iskateley,67.6803,53.1512,12.02,86,54,17.0,RU,1710362314
47,kone,-21.0595,164.8658,81.09,81,100,5.26,NC,1710362314
48,kayangel,8.0823,134.7173,81.41,74,44,18.03,PW,1710362314
49,santyoku,37.4406,129.1708,42.17,56,0,9.26,KR,1710362315
50,ushuaia,-54.8,-68.3,53.22,53,75,11.5,AR,1710362194
51,fale old settlement,-9.3852,-171.2468,85.19,70,80,16.2,TK,1710362315
52,kirensk,57.7853,108.1119,17.96,95,100,1.99,RU,1710362315
53,port-aux-francais,-49.35,70.2167,42.21,76,89,15.61,TF,1710362316
54,sisimiut,66.9395,-53.6735,16.3,89,17,7.94,GL,1710362316
55,hawaiian paradise park,19.5933,-154.9731,78.03,82,20,5.75,US,1710362316
56,colonia,50.9333,6.95,54.97,82,100,1.14,DE,1710362316
57,enewetak,11.3474,162.3373,79.93,78,100,22.1,MH,1710362317
58,badger,64.8,-147.5333,4.08,59,40,1.01,US,1710362317
59,vila velha,-20.3297,-40.2925,82.35,82,75,6.91,BR,1710362317
60,banda aceh,5.5577,95.3222,78.58,77,12,4.47,ID,1710362317
61,avarua,-21.2078,-159.775,84.25,84,75,20.71,CK,1710362318
62,ugoofaaru,5.6667,73.0,81.77,73,10,4.23,MV,1710362318
63,puerto ayora,-0.7393,-90.3518,87.76,90,88,8.99,EC,1710362318
64,dudinka,69.4058,86.1778,2.62,92,82,11.01,RU,1710362318
65,constantia,44.1833,28.65,45.7,89,100,10.31,RO,1710362045
66,pesaro,43.9036,12.8903,55.96,74,0,3.89,IT,1710362319
67,laguna,38.421,-121.4238,64.35,54,0,20.71,US,1710362319
68,lebu,-37.6167,-73.65,62.22,65,3,8.84,CL,1710362320
69,hithadhoo,-0.6,73.0833,81.59,72,4,7.85,MV,1710362320
70,tiksi,71.6872,128.8694,-26.86,100,48,6.96,RU,1710362320
71,kangding,30.0513,101.9603,33.24,96,100,1.61,CN,1710362320
72,buala,-8.145,159.5921,80.76,86,100,4.23,SB,1710362321
73,kaspiyskiy,45.3929,47.3707,34.03,71,55,20.15,RU,1710362321
74,santa maria da vitoria,-13.3947,-44.1886,82.67,69,84,1.36,BR,1710362321
75,bandiagara,14.3501,-3.6104,89.91,12,100,6.8,ML,1710362321
76,yellowknife,62.456,-114.3525,22.41,79,75,18.41,CA,1710362318
77,mount pearl,47.5166,-52.7813,36.32,93,100,4.61,CA,1710362322
78,nizza monferrato,44.7738,8.3539,56.39,82,53,3.62,IT,1710362322
79,newman,37.3138,-121.0208,62.83,54,96,18.01,US,1710362323
80,callao,-12.0667,-77.15,80.89,57,0,8.05,PE,1710362230
81,bac lieu,9.285,105.7244,78.58,80,37,10.29,VN,1710362323
82,camacupa,-12.0167,17.4833,62.37,98,87,4.18,AO,1710362323
83,la ronge,55.1001,-105.2842,25.02,54,20,6.91,CA,1710362324
84,soroca,48.1558,28.2975,33.4,99,100,6.96,MD,1710362324
85,hassi messaoud,31.6804,6.0729,66.06,24,0,4.61,DZ,1710362324
86,bredasdorp,-34.5322,20.0403,63.64,72,8,2.68,ZA,1710362324
87,karratha,-20.7377,116.8463,83.17,57,99,3.6,AU,1710362325
88,vila franca do campo,37.7167,-25.4333,64.89,99,55,11.56,PT,1710362325
89,port macquarie,-31.4333,152.9167,62.89,85,53,6.87,AU,1710362212
90,blackmans bay,-43.0167,147.3167,50.13,80,17,1.01,AU,1710362325
91,skelleftea,64.7507,20.9528,19.99,100,75,2.3,SE,1710362242
92,veraval,20.9,70.3667,72.25,84,0,13.82,IN,1710362326
93,nadym,65.5333,72.5167,-8.88,83,12,11.18,RU,1710362326
94,tofol,5.3248,163.0078,82.47,83,100,23.26,FM,1710362327
95,el reten,10.6114,-74.2682,99.21,44,43,13.42,CO,1710362327
96,udachny,66.4167,112.4,-33.41,100,85,3.78,RU,1710362327
97,znamenskoye,57.1281,73.8282,-2.33,99,99,4.03,RU,1710362327
98,floro,61.5996,5.0328,44.67,93,100,25.32,NO,1710362328
99,salalah,17.0151,54.0924,80.69,78,0,2.3,OM,1710362328
100,remire-montjoly,4.9167,-52.2667,86.04,74,75,14.97,GF,1710362328
101,podlehnik,46.3353,15.88,45.0,77,30,1.36,SI,1710362329
102,anadyr,64.75,177.4833,3.7,85,100,4.47,RU,1710362329
103,grytviken,-54.2811,-36.5092,41.22,79,100,4.74,GS,1710362329
104,shanghai,31.2222,121.4581,48.92,84,0,2.24,CN,1710362329
105,kwang binh,17.4833,106.6,71.28,98,41,1.32,VN,1710362329
106,preobrazheniye,42.9019,133.9064,29.75,67,55,6.8,RU,1710362330
107,pitimbu,-7.4706,-34.8086,79.39,75,92,8.66,BR,1710362330
108,arrah,25.5667,84.6667,71.49,32,0,4.83,IN,1710362330
109,mili,6.0815,171.735,82.24,82,100,24.58,MH,1710362330
110,necochea,-38.5473,-58.7368,79.27,49,0,7.99,AR,1710362210
111,miquelon,47.0975,-56.3814,37.4,98,100,22.62,PM,1710362331
112,conception bay south,47.4999,-52.9981,36.91,92,100,7.11,CA,1710362141
113,st. john's,47.5649,-52.7093,37.15,93,100,8.99,CA,1710362121
114,blama,7.8736,-11.3433,77.58,83,62,3.78,SL,1710362332
115,taguatinga,-12.3857,-46.5711,84.43,64,96,1.97,BR,1710362332
116,clarksville,36.5298,-87.3595,78.1,44,40,9.22,US,1710362296
117,howrah,22.5892,88.3103,78.8,89,40,6.91,IN,1710362332
118,zeya,53.75,127.2667,2.48,97,57,4.32,RU,1710362333
119,west island,-12.1568,96.8225,78.78,83,75,8.05,CC,1710362333
120,baganga,7.5739,126.56,75.94,87,72,7.27,PH,1710362333
121,tazacorte,28.629,-17.9293,68.97,89,75,2.3,ES,1710362333
122,iguape,-24.7081,-47.5553,77.85,83,7,14.36,BR,1710362333
123,mejit,10.2753,170.8646,79.2,82,92,26.51,MH,1710362334
124,albany,42.6001,-73.9662,66.58,46,88,1.01,US,1710362334
125,nar'yan-mar,67.6713,53.087,12.11,86,50,17.0,RU,1710362334
126,afaahiti,-17.75,-149.2833,85.87,81,83,11.68,PF,1710362334
127,flying fish cove,-10.4217,105.6791,76.68,94,75,8.05,CX,1710362335
128,loen,7.7601,168.2307,81.39,76,100,24.23,MH,1710362335
129,jayapura,-2.5333,140.7,76.39,91,100,4.32,ID,1710362335
130,lihue,21.9789,-159.3672,70.84,92,100,5.75,US,1710362335
131,the pas,53.8251,-101.2541,26.62,80,100,6.91,CA,1710362336
132,kamina,-8.7386,24.9906,67.03,93,73,0.81,CD,1710362336
133,lospalos,-8.5186,127.0025,74.53,94,100,14.97,TL,1710362336
134,gobabis,-22.45,18.9667,76.82,20,6,7.36,NA,1710362336
135,novodvinsk,64.4165,40.8122,24.55,96,100,4.94,RU,1710362337
136,sanctuary point,-35.1114,150.629,67.75,75,52,2.98,AU,1710362337
137,saint-philippe,-21.3585,55.7679,80.19,84,69,11.92,RE,1710362337
138,labrador city,52.9463,-66.9114,33.71,60,75,8.05,CA,1710362337
139,atherton,53.5237,-2.4935,53.74,92,100,4.0,GB,1710362338
140,okhotsk,59.3833,143.3,-9.47,93,21,8.7,RU,1710362338
141,pariaman,-0.619,100.12,73.45,83,63,4.56,ID,1710362338
142,hadibu,12.65,54.0333,77.83,76,0,7.56,YE,1710362338
143,lobujya,27.95,86.8167,0.68,22,0,3.11,NP,1710362339
144,archangelos,36.2149,28.1149,56.3,79,4,6.13,GR,1710362339
145,saint-joseph,-21.3667,55.6167,79.18,82,54,11.72,RE,1710362339
146,haiku-pauwela,20.9219,-156.3051,78.82,65,20,6.91,US,1710362339
147,okha,53.5739,142.9478,-7.6,100,81,5.12,RU,1710362340
148,georgetown,5.4112,100.3354,82.94,86,20,3.44,MY,1710362065
149,tucurui,-3.7661,-49.6725,79.97,89,100,3.11,BR,1710362340
150,minas de marcona,-15.2119,-75.1103,70.36,67,20,17.54,PE,1710362340
151,bel ombre,-4.6167,55.4167,80.44,78,20,2.3,SC,1710362341
152,margaret river,-33.95,115.0667,61.54,88,13,10.69,AU,1710362341
153,dryden,49.7833,-92.7503,37.69,75,100,5.75,CA,1710362341
154,diffa,13.3154,12.6113,88.81,11,68,5.79,NE,1710362342
155,ayaviri,-14.8864,-70.5889,57.74,62,97,12.88,PE,1710362342
156,grand falls-windsor,48.9332,-55.6649,34.5,93,100,10.0,CA,1710362343
157,aldinga beach,-35.2793,138.4604,72.75,82,100,13.24,AU,1710362343
158,vorgashor,67.5833,63.95,4.23,87,100,16.35,RU,1710362343
159,atafu village,-8.5421,-172.5159,85.19,70,36,17.05,TK,1710362343
160,opuwo,-18.0607,13.84,76.44,46,39,7.11,NA,1710362344
161,kapuskasing,49.4169,-82.4331,53.6,43,75,2.3,CA,1710362344
162,laascaanood,8.4774,47.3597,73.78,64,4,11.03,SO,1710362344
163,conceicao da barra,-18.5933,-39.7322,77.07,84,16,4.9,BR,1710362344
164,lompoc,34.6391,-120.4579,70.7,61,0,17.27,US,1710362345
165,cox's bazar,21.4532,91.9798,69.6,87,1,3.51,BD,1710362345
166,ndele,8.4109,20.6473,81.72,48,100,5.32,CF,1710362345
167,daru,-9.0763,143.2092,79.12,88,100,10.18,PG,1710362345
168,ust'-kut,56.7938,105.7672,17.44,93,100,11.01,RU,1710362346
169,ciudad lazaro cardenas,17.9583,-102.2,83.89,58,66,12.59,MX,1710362346
170,kodiak,57.79,-152.4072,26.11,80,100,8.05,US,1710362346
171,marsa alam,25.0757,34.8918,73.72,48,89,3.69,EG,1710362346
172,palikir - national government center,6.9248,158.1611,81.0,79,100,22.68,FM,1710362347
173,binjai,3.6001,98.4854,74.82,88,96,1.61,ID,1710362347
174,jiwani,25.05,61.7417,72.43,69,0,9.78,PK,1710362347
175,greenville,35.6127,-77.3663,78.15,22,100,6.91,US,1710362285
176,ascension,30.2169,-90.9001,81.09,68,100,10.36,US,1710362348
177,tura,25.5198,90.2201,67.95,35,3,4.47,IN,1710362348
178,nyrany,49.7114,13.2119,45.59,87,100,5.01,CZ,1710362348
179,port elizabeth,-33.918,25.5701,69.1,89,0,13.8,ZA,1710362249
180,bandarbeyla,9.4942,50.8122,79.5,75,12,10.98,SO,1710362349
181,las higueras,-33.0923,-64.289,80.76,74,91,5.41,AR,1710362349
182,ad darb,17.7229,42.2526,84.11,72,1,3.85,SA,1710362349
183,sargatskoye,55.6101,73.4972,-0.24,100,100,6.24,RU,1710362350
184,nam som,17.7704,102.1895,77.11,67,17,2.35,TH,1710362350
185,wloclawek,52.6482,19.0678,45.52,89,38,3.49,PL,1710362350
186,port lincoln,-34.7333,135.8667,64.4,86,100,21.56,AU,1710362351
187,bollnas,61.3482,16.3946,37.54,95,100,11.56,SE,1710362351
188,aykhal,66.0,111.5,-27.24,100,80,4.94,RU,1710362351
189,basawul,34.2475,70.8722,53.02,82,0,2.55,AF,1710362351
190,rongelap,11.1635,166.8941,79.61,81,100,23.17,MH,1710362352
191,pospelikha,51.95,81.7667,18.0,94,73,11.14,RU,1710362352
192,kerikeri,-35.2268,173.9474,64.9,93,87,3.49,NZ,1710362352
193,punta arenas,-53.15,-70.9167,50.11,53,75,27.63,CL,1710362352
194,la passe,45.5549,-0.8967,54.01,86,20,7.29,FR,1710362353
195,pisco,-13.7,-76.2167,80.65,57,0,23.02,PE,1710362353
196,whitehorse,60.7161,-135.0538,31.01,63,75,12.66,CA,1710362354
197,kavaratti,10.5669,72.642,81.97,75,6,8.61,IN,1710362354
198,chulakkurgan,43.765,69.1814,26.71,95,100,4.7,KZ,1710362354
199,al jahra',29.3375,47.6581,68.63,21,65,7.81,KW,1710362354
200,la foa,-21.7108,165.8276,80.4,80,100,3.02,NC,1710362355
201,phan rang-thap cham,11.5667,108.9833,72.07,87,30,6.02,VN,1710362355
202,antsiranana,-12.2787,49.2917,77.56,84,95,9.1,MG,1710362356
203,jijel,36.8205,5.7667,57.2,78,0,5.37,DZ,1710362356
204,vittel,48.2009,5.9484,49.82,100,0,6.91,FR,1710362356
205,codrington,-38.2667,141.9667,59.59,72,100,14.38,AU,1710362356
206,tileagd,47.0667,22.2,42.55,92,100,7.23,RO,1710362357
207,sao joao da barra,-21.6403,-41.0511,82.49,79,22,7.02,BR,1710362357
208,beira,-19.8436,34.8389,84.29,84,0,10.36,MZ,1710362357
209,murun-kuren,49.6342,100.1625,23.38,79,100,4.16,MN,1710362357
210,darwin,-12.4611,130.8418,78.78,93,100,8.99,AU,1710362195
211,san antonio de pale,-1.4014,5.6325,84.18,83,44,13.09,GQ,1710362358
212,el granada,37.5027,-122.4694,66.15,61,0,16.11,US,1710362358
213,magadan,59.5667,150.8,-2.47,96,82,7.2,RU,1710362358
214,hamilton,39.1834,-84.5333,75.15,38,20,12.66,US,1710362359
215,olonkinbyen,70.9221,-8.7187,25.65,63,100,21.21,SJ,1710362359
216,ingeniero guillermo n. juarez,-23.9,-61.85,107.74,24,20,17.0,AR,1710362359
217,guararapes,-21.2608,-50.6428,92.8,41,56,5.95,BR,1710362360
218,funafuti,-8.5243,179.1942,89.6,79,75,9.22,TV,1710362360
219,jolo,6.05,121.0167,77.34,87,26,1.1,PH,1710362360
220,andapa,-14.65,49.65,70.65,99,99,1.14,MG,1710362360
221,tolanaro,-25.0319,46.9987,78.87,89,20,13.8,MG,1710362361
222,mytilene,39.11,26.5547,53.42,76,20,4.61,GR,1710362361
223,phrai bueng,14.7483,104.3626,80.31,65,19,5.37,TH,1710362361
224,kamaishi,39.2667,141.8833,35.78,87,60,8.03,JP,1710362361
225,susuman,62.7833,148.1667,-26.01,100,94,1.01,RU,1710362362
226,ginir,7.1333,40.7,63.7,56,18,4.21,ET,1710362362
227,kenora,49.8167,-94.4337,41.97,70,75,6.91,CA,1710362362
228,cabo san lucas,22.8909,-109.9124,82.62,50,0,11.5,MX,1710362362
229,kirakira,-10.4544,161.9205,81.77,84,100,6.67,SB,1710362363
230,macapa,0.0389,-51.0664,82.38,83,40,9.22,BR,1710362363
231,acarau,-2.8856,-40.12,80.98,86,100,9.42,BR,1710362363
232,spring creek,40.7266,-115.5859,32.4,65,100,7.0,US,1710362364
233,brookings,44.3114,-96.7984,61.38,32,20,14.97,US,1710362364
234,gulf shores,30.246,-87.7008,78.39,68,0,8.05,US,1710362364
235,dubrovka,53.6907,33.5071,23.31,97,75,5.48,RU,1710362365
236,papatowai,-46.5619,169.4708,51.42,64,100,8.19,NZ,1710362365
237,chernyshevskiy,63.0128,112.4714,-26.19,100,100,2.59,RU,1710362365
238,nova sintra,14.8667,-24.7167,68.04,74,1,21.9,CV,1710362365
239,santa marta,11.2408,-74.199,98.65,41,40,16.11,CO,1710362366
240,dubbo,-32.25,148.6167,62.73,88,31,3.44,AU,1710362366
241,hanzhong,33.0728,107.0303,49.77,78,100,1.1,CN,1710362366
242,coquimbo,-29.9533,-71.3436,69.53,68,0,14.97,CL,1710362248
243,wanxian,30.8039,108.3897,54.75,90,100,2.04,CN,1710362367
244,klyuchi,52.2667,79.1667,17.2,94,91,9.57,RU,1710362367
245,hotan,37.0997,79.9269,47.95,31,99,17.25,CN,1710362367
246,la maddalena,41.2142,9.4083,48.25,82,0,6.49,IT,1710362367
247,baardheere,2.3446,42.2764,84.4,57,9,14.05,SO,1710362368
248,egilsstadir,65.2653,-14.3948,31.91,100,100,26.46,IS,1710362368
249,shimoda,34.6667,138.95,46.65,61,56,4.59,JP,1710362368
250,vilyuchinsk,52.9306,158.4028,28.67,91,100,33.62,RU,1710362369
251,cidreira,-30.1811,-50.2056,75.7,83,82,12.5,BR,1710362369
252,comodoro rivadavia,-45.8667,-67.5,67.86,26,44,33.38,AR,1710362369
253,fortuna,40.5982,-124.1573,56.35,62,0,13.8,US,1710362369
254,east london,-33.0153,27.9116,68.72,85,100,9.91,ZA,1710362370
255,port hedland,-20.3167,118.5667,82.45,74,57,4.61,AU,1710362370
256,geraldton,-28.7667,114.6,73.81,73,7,9.22,AU,1710362370
257,tshikapa,-6.4167,20.8,73.27,91,66,1.57,CD,1710362371
258,severo-yeniseyskiy,60.3725,93.0408,0.57,99,90,4.0,RU,1710362371
259,new norfolk,-42.7826,147.0587,51.3,89,5,2.33,AU,1710362371
260,belyy yar,53.6039,91.3903,19.29,86,0,0.0,RU,1710362372
261,parras de la fuente,25.4167,-102.1833,79.2,13,37,17.2,MX,1710362372
262,utrik,11.2278,169.8474,79.02,78,100,27.34,MH,1710362372
263,jamestown,42.097,-79.2353,66.52,45,75,13.8,US,1710362192
264,tazovsky,67.4667,78.7,-13.63,86,14,8.79,RU,1710362373
265,kannur,11.8675,75.3576,76.93,87,23,5.08,IN,1710362373
266,port mathurin,-19.6833,63.4167,79.65,79,11,24.02,MU,1710362373
267,santa ana de yacuma,-13.75,-65.4333,82.35,89,75,5.75,BO,1710362374
268,metlili chaamba,32.2667,3.6333,65.34,24,0,3.44,DZ,1710362374
269,sinabang,2.4803,96.3801,80.04,79,24,3.74,ID,1710362374
270,bulnes,-36.7423,-72.2985,57.96,25,0,12.03,CL,1710362374
271,clinton,42.587,-82.9199,73.22,39,20,9.22,US,1710362218
272,queenstown,-31.8976,26.8753,60.89,86,99,2.57,ZA,1710362375
273,shalya,57.2471,58.7298,19.31,94,100,9.35,RU,1710362375
274,howard springs,-12.497,131.047,78.71,95,100,6.53,AU,1710362376
275,bubaque,11.2833,-15.8333,78.24,73,14,21.05,GW,1710362376
276,visakhapatnam,17.69,83.2093,78.46,84,1,9.24,IN,1710362376
277,vilyuysk,63.7553,121.6247,-18.99,100,100,1.01,RU,1710362377
278,ponta delgada,37.7333,-25.6667,65.19,88,75,11.5,PT,1710362377
279,okahandja,-21.9833,16.9167,73.99,31,7,8.95,NA,1710362377
280,muravlenko,63.7898,74.523,2.12,84,100,10.31,RU,1710362377
281,pulsano,40.3821,17.3564,55.51,74,9,1.99,IT,1710362378
282,nuuk,64.1835,-51.7216,23.61,93,75,9.22,GL,1710362378
283,qamdo,31.1667,97.2333,24.98,53,80,5.14,CN,1710362378
284,ghadamis,30.1337,9.5007,64.44,28,70,9.53,LY,1710362378
285,eirunepe,-6.6603,-69.8736,82.96,85,81,2.77,BR,1710362379
286,poso,-1.3959,120.7524,77.49,86,92,3.02,ID,1710362379
287,les avirons,-21.2418,55.3394,77.09,78,20,19.57,RE,1710362379
288,longyearbyen,78.2186,15.6401,6.64,72,75,21.85,SJ,1710362379
289,olinda,-8.0089,-34.8553,83.93,79,75,9.22,BR,1710362380
290,arkhangel'sk,64.5401,40.5433,24.91,100,100,6.71,RU,1710362380
291,puerto baquerizo moreno,-0.9,-89.6,81.59,94,75,5.75,EC,1710362380
292,ad dilam,23.9915,47.1627,68.41,21,21,9.48,SA,1710362380
293,seminole,28.7086,-81.2081,86.2,50,0,12.66,US,1710362381
294,kruisfontein,-34.0033,24.7314,66.88,75,62,10.83,ZA,1710362381
295,belo sur tsiribihina,-19.7,44.55,78.91,86,6,2.13,MG,1710362381
296,kargasok,59.0556,80.8572,7.97,98,94,7.0,RU,1710362382
297,bol'sherech'ye,56.0925,74.6272,1.76,100,99,5.14,RU,1710362382
298,panaba,21.2833,-88.2667,96.03,29,37,10.67,MX,1710362382
299,northam,51.0333,-4.2167,52.39,91,100,14.83,GB,1710362382
300,aasiaat,68.7098,-52.8699,0.75,99,62,2.77,GL,1710362383
301,rothrist,47.3051,7.892,49.57,92,100,2.06,CH,1710362383
302,galle,6.0367,80.217,78.35,85,98,1.25,LK,1710362383
303,juneau,58.3019,-134.4197,35.6,95,100,14.97,US,1710362385
304,yorosso,12.3536,-4.7761,90.72,12,43,8.16,ML,1710362385
305,timmins,48.4669,-81.3331,48.02,57,75,4.61,CA,1710362138
306,fergana,40.3842,71.7843,41.16,56,40,4.61,UZ,1710362386
307,ketchikan,55.3422,-131.6461,40.33,87,100,16.11,US,1710362386
308,roha,18.4333,73.1167,71.13,70,8,4.68,IN,1710362386
309,salinas,36.6777,-121.6555,65.97,62,0,8.05,US,1710362179
310,ban na san,8.8004,99.3637,74.79,80,70,1.81,TH,1710362387
311,salinopolis,-0.6136,-47.3561,81.05,87,99,10.69,BR,1710362387
312,beaumont,30.0861,-94.1019,80.11,75,100,16.11,US,1710362048
313,svetlyy,54.675,20.1347,41.36,94,100,3.51,RU,1710362388
314,armacao de buzios,-22.7469,-41.8817,80.76,78,23,4.97,BR,1710362388
315,fort st. john,56.2499,-120.8529,42.69,52,75,18.41,CA,1710362388
316,huayin,34.5675,110.0921,51.49,67,1,3.11,CN,1710362389
317,chatham,51.3789,0.5279,53.2,72,100,4.0,GB,1710362122
318,delice,39.9537,34.0259,44.38,85,100,6.13,TR,1710362389
319,katsuura,35.1333,140.3,46.96,60,84,5.93,JP,1710362390
320,nemuro,43.3236,145.575,26.31,65,5,16.6,JP,1710362390
321,christchurch,-43.5333,172.6333,60.91,75,48,7.0,NZ,1710362390
322,coromandel,-18.4733,-47.2003,75.33,81,86,2.71,BR,1710362390
323,mount gambier,-37.8333,140.7667,58.28,72,89,9.89,AU,1710362391
324,figuig (centre),32.1089,-1.2286,62.24,27,100,4.43,MA,1710362391
325,yemva,62.59,50.8594,3.09,98,100,1.07,RU,1710362391
326,selah,46.654,-120.5301,55.44,38,0,6.91,US,1710362391
327,kourou,5.1552,-52.6478,86.05,77,49,7.81,GF,1710362392
328,mount isa,-20.7333,139.5,65.97,88,35,0.0,AU,1710362392
329,al jawf,29.5,38.75,68.11,15,41,10.98,SA,1710362392
330,selkirk,50.1436,-96.8845,43.09,88,64,3.0,CA,1710362392
331,gizo,-8.103,156.8419,80.37,82,100,11.34,SB,1710362393
332,albano sant'alessandro,45.6865,9.7707,55.72,76,0,4.61,IT,1710362393
333,krasnyy chikoy,50.3643,108.7512,25.86,97,100,2.46,RU,1710362393
334,shumen,43.2706,26.9229,46.69,86,100,7.49,BG,1710362393
335,lakatoro,-16.0999,167.4164,80.56,90,100,12.97,VU,1710362394
336,ocos,14.5094,-92.1933,93.38,62,1,14.27,GT,1710362394
337,ancud,-41.8697,-73.8203,56.93,69,73,12.41,CL,1710362394
338,at taj,24.2049,23.2857,68.05,13,100,9.75,LY,1710362394
339,urengoy,65.9667,78.3667,-1.07,95,100,5.97,RU,1710362395
340,puerto aysen,-45.4,-72.7,47.32,96,100,7.38,CL,1710362395
341,tsetserleg,47.475,101.4542,19.29,65,73,5.99,MN,1710362395
342,barra de santo antonio,-9.4047,-35.5072,81.68,76,100,8.16,BR,1710362396
343,prabumulih,-3.45,104.25,74.98,97,100,3.02,ID,1710362396
344,mogok,22.9167,96.5,59.63,43,0,1.7,MM,1710362396
345,bahir dar,11.5936,37.3908,65.48,70,100,5.35,ET,1710362396
346,laakirchen,47.9819,13.8217,46.54,79,100,4.12,AT,1710362397
347,kish,26.5578,54.0194,70.07,78,0,4.61,IR,1710362397
348,salekhard,66.53,66.6019,-0.71,91,100,10.42,RU,1710362397
349,qaqortoq,60.7167,-46.0333,24.49,96,100,5.28,GL,1710362398
350,placido de castro,-10.3353,-67.1856,88.45,65,99,2.66,BR,1710362398
351,aksu,41.1231,80.2644,49.78,26,100,5.39,CN,1710362359
352,nantucket,41.2835,-70.0995,50.0,65,0,6.91,US,1710362234
353,benghazi,32.1167,20.0667,60.35,63,5,10.18,LY,1710362399
354,labuan,5.2767,115.2417,79.16,83,20,0.0,MY,1710362399
355,develi,38.3906,35.4922,52.95,72,100,6.33,TR,1710362399
356,qarauyl,48.9451,79.255,15.75,87,16,9.1,KZ,1710362400
357,broken hill,-31.95,141.4333,75.65,43,93,8.95,AU,1710362400
358,vinogradovo,56.9333,37.55,24.91,95,100,7.23,RU,1710362400
359,san sebastian de la gomera,28.0916,-17.1133,71.38,88,75,2.3,ES,1710362144
360,sault ste. marie,46.5168,-84.3333,55.96,50,0,13.8,CA,1710362343
361,saint-pierre,-21.3393,55.4781,80.28,78,20,19.57,RE,1710362401
362,broome,42.2506,-75.833,69.89,40,100,9.22,US,1710362401
363,sumenep,-7.0167,113.8667,79.81,86,100,17.16,ID,1710362402
364,al kharijah,25.4514,30.5464,69.15,16,99,8.63,EG,1710362402
365,box elder,41.5005,-112.8764,38.46,46,89,10.31,US,1710362403
366,porto novo,6.4965,2.6036,82.35,85,80,9.57,BJ,1710362403
367,kintampo,8.0563,-1.7306,85.69,56,100,9.48,GH,1710362404
368,katsuren-haebaru,26.3369,127.8719,63.37,62,75,4.61,JP,1710362404
369,aripuana,-9.1667,-60.6333,88.68,61,86,1.25,BR,1710362404
370,gettorf,54.4,9.9833,49.98,100,100,8.05,DE,1710362404
371,akcadag,38.3453,37.9672,47.39,53,75,5.75,TR,1710362405
372,genet,9.0667,38.5,63.52,58,15,5.88,ET,1710362405
373,dungarpur,23.8333,73.7167,71.38,35,0,7.87,IN,1710362405
374,san antonio,29.4241,-98.4936,90.66,54,40,13.8,US,1710362132
375,diawara,15.022,-12.5437,91.78,11,22,8.81,SN,1710362406
376,dunedin,-45.8742,170.5036,51.51,67,100,3.18,NZ,1710362406
377,el matama,16.7095,33.3565,93.33,10,51,8.1,SD,1710362406
378,quechultenango,17.4167,-99.2167,93.6,22,69,10.16,MX,1710362407
379,waterloo,43.4668,-80.5164,65.01,29,0,16.11,CA,1710362400
380,idri,27.5,13.2667,68.04,27,100,11.63,LY,1710362407
381,carrollton,32.9537,-96.8903,82.8,59,75,19.57,US,1710362407
382,kingston,17.997,-76.7936,86.95,66,40,21.85,JM,1710362108
383,bengkulu,-3.8004,102.2655,76.53,90,81,7.72,ID,1710362408
384,happy valley-goose bay,53.3168,-60.3315,37.71,70,75,12.66,CA,1710362408
385,puerto eldorado,-26.4084,-54.6946,95.94,34,6,1.03,AR,1710362409
386,belmonte,-15.8631,-38.8828,80.53,77,17,5.41,BR,1710362409
387,lat yao,15.751,99.7893,84.67,49,0,5.95,TH,1710362409
388,ust-nera,64.5667,143.2,-18.78,97,100,1.92,RU,1710362410
389,odemira,37.598,-8.6397,58.15,95,2,3.42,PT,1710362410
390,arba minch,6.0333,37.55,76.3,48,70,2.04,ET,1710362410
391,mandera,3.9366,41.867,86.81,48,14,17.49,KE,1710362411
392,khandyga,62.6667,135.6,-4.61,100,100,0.89,RU,1710362411
393,kataysk,56.289,62.5841,14.49,89,88,11.54,RU,1710362411
394,colares,38.7992,-9.4469,58.89,90,20,8.99,PT,1710362411
395,sabang,5.8933,95.3214,82.04,75,56,5.23,ID,1710362412
396,nizhniy ingash,56.2,96.53,12.36,93,63,7.52,RU,1710362412
397,choibalsan,48.0667,114.5,26.98,85,100,8.81,MN,1710362412
398,buka,40.8108,69.1986,41.36,63,6,3.47,UZ,1710362413
399,lorengau,-2.0226,147.2712,82.4,81,94,11.45,PG,1710362413
400,weno,7.4515,151.8468,82.35,83,100,12.66,FM,1710362413
401,uturoa,-16.7333,-151.4333,84.38,74,82,13.56,PF,1710362414
402,miles city,46.4083,-105.8406,54.57,37,75,13.8,US,1710362414
403,juegang,32.3174,121.1855,44.85,77,96,4.54,CN,1710362414
404,bela,25.9333,81.9833,71.42,32,0,5.21,IN,1710362414
405,yuzhno-kurilsk,44.0306,145.8556,25.38,78,78,15.05,RU,1710362415
406,fortuna foothills,32.6578,-114.4119,77.22,27,20,8.05,US,1710362122
407,ola,59.5833,151.2833,-1.86,96,67,7.07,RU,1710362415
408,paranaiba,-19.6772,-51.1908,90.12,52,68,1.16,BR,1710362294
409,san gabriel,34.0961,-118.1058,72.28,53,40,5.01,US,1710362416
410,aioun,16.6614,-9.6149,86.13,9,0,10.56,MR,1710362417
411,filadelfia,39.9523,-75.1638,73.44,30,75,10.36,US,1710362402
412,pangody,65.85,74.4859,-14.89,92,40,7.67,RU,1710362417
413,urangan,-25.3,152.9,75.2,93,58,7.0,AU,1710362418
414,xinyuan,37.3,99.0,23.31,30,100,2.91,CN,1710362358
415,mahina,-17.5065,-149.489,87.57,70,20,12.66,PF,1710362419
416,somanda,-3.3667,33.95,67.69,66,100,6.17,TZ,1710362420
417,port alfred,-33.5906,26.891,68.77,82,100,10.58,ZA,1710362420
418,tevriz,57.509,72.4042,7.25,94,100,6.24,RU,1710362421
419,miringa,10.7312,12.1463,86.76,12,100,3.15,NG,1710362422
420,perry,37.2506,-83.1999,75.38,40,8,8.9,US,1710362422
421,sao tome,0.3365,6.7273,83.3,82,78,7.09,ST,1710362422
422,klaksvik,62.2266,-6.589,41.92,81,36,25.26,FO,1710362422
423,priargunsk,50.3691,119.1012,2.53,99,98,2.17,RU,1710362423
424,houghton,47.1219,-88.569,51.28,55,0,12.66,US,1710362423
425,gornyy,55.1153,83.9059,9.68,92,100,6.29,RU,1710362423
426,san matias,-16.3667,-58.4,94.12,50,95,4.09,BO,1710362424
427,lubang,13.8584,120.124,78.35,80,25,23.17,PH,1710362424
428,koszalin,54.1944,16.1722,45.68,81,55,8.03,PL,1710362424
429,morrope,-6.5417,-80.0111,82.51,56,49,15.43,PE,1710362424
430,bam,29.106,58.357,56.89,35,0,2.71,IR,1710362425
431,hobyo,5.3505,48.5268,81.48,69,7,12.97,SO,1710362425
432,podporozh'ye,60.9112,34.1706,30.31,97,100,7.05,RU,1710362425
433,kidal,18.4411,1.4078,85.42,7,67,9.15,ML,1710362425
434,albacete,38.8333,-2.0,59.18,47,0,5.75,ES,1710362426
435,puerto real,36.5282,-6.1901,60.96,82,20,9.22,ES,1710362426
436,cova figueira,14.8905,-24.2934,68.79,74,4,15.88,CV,1710362426
437,pacific grove,36.6177,-121.9166,65.8,65,0,8.99,US,1710362426
438,novaya igirma,57.1334,103.9112,3.2,99,62,3.8,RU,1710362427
439,san patricio,28.017,-97.5169,91.17,51,0,16.51,US,1710362427
440,acapulco de juarez,16.8634,-99.8901,84.02,70,0,10.36,MX,1710362299
441,outjo,-20.1167,16.15,73.2,41,32,7.25,NA,1710362428
442,tres passos,-27.4556,-53.9319,84.24,59,50,7.87,BR,1710362428
443,lerma,42.0261,-3.7598,48.76,49,100,4.45,ES,1710362428
444,cole harbour,44.6724,-63.4751,40.71,81,75,25.32,CA,1710362428
445,perevolotskiy,51.8763,54.1938,13.8,95,96,4.12,RU,1710362429
446,taoudenni,22.6783,-3.9836,81.91,12,0,7.72,ML,1710362429
447,herval,-32.0236,-53.3956,88.09,42,53,7.14,BR,1710362429
448,alofi,-19.0595,-169.9187,82.29,78,100,9.22,NU,1710362430
449,anna regina,7.2644,-58.5077,82.4,70,43,8.7,GY,1710362430
450,keflavik,64.0049,-22.5624,37.31,80,0,18.41,IS,1710362430
451,kokopo,-4.352,152.2633,79.09,82,97,7.85,PG,1710362430
452,chenzhou,25.8,113.0333,57.9,94,99,1.5,CN,1710362431
453,morant bay,17.8815,-76.4093,87.42,70,12,11.77,JM,1710362431
454,marsh harbour,26.5412,-77.0636,72.3,66,60,6.67,BS,1710362431
455,yamada,39.4667,141.95,33.28,81,18,6.24,JP,1710362431
456,solnechnyy,50.7214,136.6319,-3.96,95,98,2.17,RU,1710362432
457,turbat,26.0023,63.044,67.1,23,0,11.3,PK,1710362432
458,grand baie,-20.0182,57.5802,79.45,82,96,5.01,MU,1710362432
459,onega,63.9061,38.1404,20.34,98,100,3.89,RU,1710362433
460,hirara,24.8,125.2833,61.07,67,75,3.44,JP,1710362360
461,selfoss,63.9331,-20.9971,32.79,72,64,13.6,IS,1710362433
462,inarajan village,13.2736,144.7484,80.74,91,100,17.0,GU,1710362433
463,timbiras,-4.2553,-43.9406,80.74,87,99,0.94,BR,1710362434
464,mamadysh,55.7152,51.408,27.68,95,94,10.92,RU,1710362434
465,ballito,-29.539,31.2144,75.34,73,75,13.8,ZA,1710362434
466,alta,69.9689,23.2717,16.86,77,0,21.0,NO,1710362434
467,lodeynoye pole,60.726,33.5531,31.68,98,100,7.52,RU,1710362435
468,sarikei,2.1167,111.5167,75.09,99,92,2.04,MY,1710362435
469,al ghayzah,16.2079,52.176,77.5,80,22,4.32,YE,1710362435
470,dawson creek,55.7666,-120.2362,44.24,49,0,17.27,CA,1710362435
471,trinidad,-14.8333,-64.9,80.58,94,75,8.05,BO,1710362345
472,anqiu,36.4342,119.1925,46.24,53,99,3.44,CN,1710362436
473,missoula,47.0166,-113.8009,35.17,52,100,4.63,US,1710362436
474,papao,-17.75,-149.55,87.48,75,92,9.15,PF,1710362436
475,nova vicosa,-17.8919,-39.3719,79.0,79,29,8.01,BR,1710362437
476,korla,41.7597,86.1469,48.0,36,73,13.98,CN,1710362359
477,butiama,-1.7667,33.9667,67.26,72,100,3.2,TZ,1710362437
478,leua,48.2156,18.6071,47.5,73,2,6.11,SK,1710362437
479,zuni pueblo,35.0725,-108.8506,39.83,77,100,14.81,US,1710362438
480,sarankhola,22.3082,89.7897,73.9,92,0,4.5,BD,1710362438
481,sil-li,39.4947,125.4736,34.34,82,0,3.58,KP,1710362439
482,champerico,14.3,-91.9167,87.01,59,4,14.03,GT,1710362439
483,coahuayana de hidalgo,18.7,-103.6583,89.31,40,94,8.08,MX,1710362440
484,pirallahi,40.4723,50.333,44.74,78,100,12.8,AZ,1710362440
485,sola,-13.8833,167.55,81.36,84,99,17.05,VU,1710362440
486,kharp,66.8014,65.8081,3.04,94,93,10.07,RU,1710362441
487,margate,51.3813,1.3862,52.7,83,100,5.99,GB,1710361650
488,helena valley west central,46.6629,-112.0604,45.72,41,75,11.5,US,1710362441
489,arraial do cabo,-22.9661,-42.0278,80.56,69,75,8.05,BR,1710362428
490,bogale,16.2833,95.4,71.96,85,6,8.21,MM,1710362442
491,freetown,8.484,-13.2299,82.11,78,75,13.8,SL,1710362442
492,zaozersk,69.4005,32.4476,12.51,96,100,4.54,RU,1710362442
493,hovd,48.0056,91.6419,30.16,54,99,5.35,MN,1710362443
494,tyukhtet,56.5389,89.3011,8.42,95,100,4.85,RU,1710362443
495,dalbandin,28.8947,64.4101,52.88,35,0,4.34,PK,1710362443
496,alpena,45.0617,-83.4327,64.72,45,0,9.22,US,1710362444
497,kolonia town,6.964,158.206,82.11,79,100,22.46,FM,1710362444
498,vrangel',42.7297,133.0839,32.34,65,7,6.85,RU,1710362444
499,liaocheng,36.4439,115.9647,46.42,66,16,7.2,CN,1710362445
500,afua,-0.1567,-50.3867,79.38,93,80,6.89,BR,1710362445
501,stalowa wola,50.5829,22.0533,39.85,91,100,1.01,PL,1710362445
502,bonny,4.4522,7.1681,83.64,82,70,11.5,NG,1710362446
503,acajutla,13.5928,-89.8275,86.79,60,15,8.88,SV,1710362446
504,eyl,7.9803,49.8164,79.7,74,5,11.32,SO,1710362446
505,puerto gaitan,4.3133,-72.0816,84.88,66,89,3.56,CO,1710362446
506,tegueste,28.5167,-16.3167,65.62,93,75,13.8,ES,1710362447
507,bayanhongor,46.7167,100.1167,4.08,67,41,4.81,MN,1710362447
508,general conesa,-40.1,-64.4333,87.46,13,0,24.72,AR,1710362447
509,anshun,26.25,105.9333,48.4,84,100,4.47,CN,1710362448
510,kaduna,10.5222,7.4383,84.43,19,100,2.15,NG,1710362448
511,galesong,-5.3166,119.3661,78.82,84,100,5.97,ID,1710362448
512,debre birhan,9.6833,39.5333,53.94,66,5,4.97,ET,1710362448
513,oriximina,-1.7656,-55.8661,86.52,67,94,4.43,BR,1710362247
514,kerema,-7.9631,145.7785,77.72,89,100,4.14,PG,1710362449
515,jutai,-5.1833,-68.9,85.69,71,87,1.43,BR,1710362449
516,kirillov,59.863,38.3813,32.99,93,100,6.85,RU,1710362450
517,ahtari,62.554,24.0619,32.92,98,100,7.76,FI,1710362450
518,gatesville,31.4352,-97.7439,83.41,61,0,9.22,US,1710362176
519,portland,45.5234,-122.6762,54.61,66,40,4.61,US,1710361917
520,sydney,-33.8679,151.2073,70.9,82,0,8.05,AU,1710361737
521,lunao,8.8503,125.0564,73.33,84,18,3.65,PH,1710362451
522,san luis de la loma,17.2706,-100.8939,86.38,55,97,12.91,MX,1710362451
523,kapa'a,22.0752,-159.319,71.58,90,100,5.75,US,1710362451
524,hasaki,35.7333,140.8333,32.4,46,72,2.13,JP,1710362452
525,balsas,-7.5325,-46.0356,81.91,71,100,4.45,BR,1710362452
526,yarmouth,41.7057,-70.2286,53.15,63,0,6.91,US,1710362452
527,araure,9.5601,-69.2148,95.97,34,71,3.02,VE,1710362452
528,barabai,-2.5833,115.3833,74.28,97,97,1.39,ID,1710362453
529,vorkuta,67.5,64.0,4.69,84,100,16.24,RU,1710362453
530,hemsby,52.6971,1.6918,55.63,84,100,17.31,GB,1710362453
531,andergrove,-21.0833,149.1833,77.65,85,90,19.06,AU,1710362453
532,iwon-up,40.3231,128.6553,37.47,60,0,8.14,KP,1710362454
533,talsi,57.2456,22.5814,37.24,98,100,6.93,LV,1710362454
534,huron,41.1501,-82.5499,71.67,41,1,11.36,US,1710362454
535,villa gesell,-37.2639,-56.973,72.05,88,2,11.97,AR,1710362454
536,port saint john's,-31.6229,29.5448,72.16,90,100,7.36,ZA,1710362455
537,senanga,-16.1167,23.2667,76.62,51,64,5.66,ZM,1710362455
538,altai,46.3722,96.2583,25.16,41,94,3.94,MN,1710362455
539,port moresby,-9.4431,147.1797,76.51,93,100,10.02,PG,1710362455
540,alto araguaia,-17.3147,-53.2153,79.88,71,100,3.27,BR,1710362456
541,kurumkan,54.3,110.3,16.12,92,92,5.01,RU,1710362456
542,mount darwin,-16.7725,31.5838,67.19,92,100,2.8,ZW,1710362456
543,balotra,25.8333,72.2333,71.78,34,0,0.78,IN,1710362456
544,birjand,32.8663,59.2211,39.67,75,0,4.61,IR,1710362457
