City_ID,city,latitude,longitude,max temp,city humidity,cloudiness,wind speed,country,date
0,forster,-32.1667,152.5167,81.37,58,20,5.66,AU,1710200888
1,blackmans bay,-43.0167,147.3167,63.52,69,74,1.99,AU,1710200888
2,oak grove,45.4168,-122.6401,48.94,89,100,9.22,US,1710200350
3,grytviken,-54.2811,-36.5092,42.31,81,43,7.7,GS,1710200888
4,hamilton,39.1834,-84.5333,56.25,37,0,12.66,US,1710200889
5,tiksi,71.6872,128.8694,-2.13,97,100,5.19,RU,1710200889
6,saint-leu,-21.15,55.2833,77.83,79,19,3.56,RE,1710200889
7,saldanha,-33.0117,17.9442,68.05,95,5,14.07,ZA,1710200889
8,fort bragg,35.139,-79.006,60.94,24,0,10.36,US,1710200570
9,san luis de la loma,17.2706,-100.8939,82.92,53,0,6.91,MX,1710200890
10,praia da vitoria,38.7333,-27.0667,59.76,88,20,12.44,PT,1710200890
11,al muwayh,22.4333,41.7583,67.05,18,30,11.48,SA,1710200891
12,antofagasta,-23.65,-70.4,67.28,84,21,7.96,CL,1710200704
13,georgetown,5.4112,100.3354,80.94,84,20,5.01,MY,1710200697
14,uturoa,-16.7333,-151.4333,83.21,77,77,8.14,PF,1710200891
15,avarua,-21.2078,-159.775,77.05,83,75,11.5,CK,1710200891
16,lihue,21.9789,-159.3672,79.84,77,75,13.8,US,1710200892
17,bilibino,68.0546,166.4372,-9.89,92,84,1.39,RU,1710200892
18,la'ie,21.6477,-157.9253,80.56,67,100,7.0,US,1710200892
19,la passe,45.5549,-0.8967,48.43,88,69,9.55,FR,1710200892
20,owatonna,44.0839,-93.226,68.07,22,0,4.61,US,1710200892
21,coari,-4.085,-63.1414,78.89,91,97,3.4,BR,1710200893
22,ribeira grande,38.5167,-28.7,60.78,91,24,14.0,PT,1710200893
23,port saint john's,-31.6229,29.5448,74.25,89,0,10.69,ZA,1710200893
24,kruisfontein,-34.0033,24.7314,69.89,88,11,6.96,ZA,1710200894
25,menzelinsk,55.7271,53.1026,5.22,96,87,5.99,RU,1710200894
26,bel ombre,-4.6167,55.4167,82.24,83,20,3.44,SC,1710200894
27,yemva,62.59,50.8594,0.45,100,92,3.33,RU,1710200895
28,an nimas,19.1455,42.1201,57.38,44,3,2.28,SA,1710200895
29,albany,42.6001,-73.9662,38.35,53,14,5.99,US,1710200895
30,qaqortoq,60.7167,-46.0333,17.17,92,12,5.01,GL,1710200896
31,weno,7.4515,151.8468,81.27,67,100,23.55,FM,1710200685
32,jamestown,42.097,-79.2353,40.71,41,100,10.36,US,1710200655
33,kirensk,57.7853,108.1119,17.96,96,94,5.01,RU,1710200896
34,cannonvale,-20.2833,148.7,78.19,77,96,19.24,AU,1710200897
35,edinburgh of the seven seas,-37.0676,-12.3116,59.74,63,92,5.44,SH,1710200897
36,guerrero negro,27.9769,-114.0611,63.45,59,91,17.02,MX,1710200897
37,college,64.8569,-147.8028,5.47,43,40,5.75,US,1710200897
38,port-aux-francais,-49.35,70.2167,42.73,66,4,26.73,TF,1710200898
39,rabo de peixe,37.8,-25.5833,63.99,99,75,25.32,PT,1710200898
40,masterton,-40.9597,175.6575,65.88,65,90,7.09,NZ,1710200898
41,kingston,17.997,-76.7936,85.15,70,20,3.44,JM,1710200898
42,ilulissat,69.2167,-51.1,12.22,85,100,8.05,GL,1710200899
43,mocimboa,-11.3167,40.35,75.97,89,62,4.16,MZ,1710200899
44,mount pearl,47.5166,-52.7813,35.33,98,100,29.93,CA,1710200899
45,zouerate,22.7187,-12.4521,69.1,25,98,3.71,MR,1710200899
46,dryden,49.7833,-92.7503,53.89,28,40,5.75,CA,1710200900
47,urangan,-25.3,152.9,78.21,85,64,5.99,AU,1710200900
48,port mathurin,-19.6833,63.4167,79.79,74,87,17.56,MU,1710200900
49,minas de marcona,-15.2119,-75.1103,65.84,80,90,12.73,PE,1710200697
50,invercargill,-46.4,168.35,55.02,80,81,5.99,NZ,1710200901
51,noyabrsk,63.1994,75.4507,-12.77,100,100,1.99,RU,1710200901
52,gisborne,-38.6533,178.0042,64.26,77,76,4.99,NZ,1710200887
53,zalesovo,53.9939,84.7431,16.38,92,94,5.75,RU,1710200902
54,veraval,20.9,70.3667,73.71,68,0,12.59,IN,1710200902
55,beau vallon,-20.4189,57.6953,79.03,83,40,4.61,MU,1710200902
56,hilo,19.7297,-155.09,74.28,85,75,8.05,US,1710200903
57,isafjordur,66.0755,-23.124,32.61,92,99,21.85,IS,1710200903
58,yellowknife,62.456,-114.3525,18.12,62,75,8.05,CA,1710200903
59,hermanus,-34.4187,19.2345,68.81,87,40,9.22,ZA,1710200904
60,waitangi,-43.9535,-176.5597,55.81,68,62,4.0,NZ,1710200904
61,palu,-0.8917,119.8707,80.62,88,97,2.8,ID,1710200904
62,iqaluit,63.7506,-68.5145,-11.31,76,40,0.0,CA,1710200905
63,kourou,5.1552,-52.6478,82.45,84,12,7.11,GF,1710200905
64,vilyuchinsk,52.9306,158.4028,26.87,68,100,8.59,RU,1710200905
65,juneau,58.3019,-134.4197,42.8,39,100,10.36,US,1710200906
66,adamstown,-25.066,-130.1015,74.44,84,97,4.38,PN,1710200906
67,anadyr,64.75,177.4833,-12.5,75,20,6.71,RU,1710200906
68,villa bruzual,9.3328,-69.1208,91.53,33,52,2.13,VE,1710200907
69,nikolayevsk-on-amure,53.1406,140.73,13.64,79,68,3.15,RU,1710200907
70,fortuna,40.5982,-124.1573,48.65,94,75,21.85,US,1710200907
71,bethel,41.3712,-73.414,46.71,27,0,13.8,US,1710200908
72,carnarvon,-24.8667,113.6333,84.2,65,5,14.5,AU,1710200908
73,gora,51.6664,16.5349,44.1,95,100,5.5,PL,1710200913
74,puerto ayora,-0.7393,-90.3518,80.55,93,48,1.99,EC,1710200915
75,la ronge,55.1001,-105.2842,43.02,42,40,6.91,CA,1710200917
76,filadelfia,39.9523,-75.1638,52.27,29,0,1.99,US,1710200701
77,margaret river,-33.95,115.0667,60.58,72,1,10.67,AU,1710200924
78,nabire,-3.3667,135.4833,76.14,90,100,0.72,ID,1710200929
79,bargaal,11.2864,51.0773,76.51,85,24,1.7,SO,1710200667
80,nyaunglebin,17.95,96.7333,69.44,48,27,4.21,MM,1710200936
81,longyearbyen,78.2186,15.6401,4.84,51,40,19.57,SJ,1710200938
82,arraial do cabo,-22.9661,-42.0278,78.66,89,40,6.91,BR,1710200940
83,ushuaia,-54.8,-68.3,46.06,71,0,0.0,AR,1710200698
84,lebu,-37.6167,-73.65,58.77,84,2,19.19,CL,1710200843
85,thompson,55.7435,-97.8558,48.36,46,75,0.0,CA,1710200945
86,rongelap,11.1635,166.8941,80.01,83,95,21.68,MH,1710200947
87,sur,22.5667,59.5289,74.44,75,1,14.47,OM,1710200949
88,keflavik,64.0049,-22.5624,34.23,80,0,10.36,IS,1710200951
89,chonchi,-42.6128,-73.8092,56.41,97,100,11.36,CL,1710200952
90,sungjibaegam,41.2428,128.7989,16.97,67,84,6.6,KP,1710200953
91,kailua-kona,19.6406,-155.9956,76.96,82,100,8.05,US,1710200955
92,greymouth,-42.4667,171.2,61.72,78,100,6.8,NZ,1710200772
93,kodinar,20.7903,70.7031,73.62,61,0,10.02,IN,1710200963
94,badger,64.8,-147.5333,5.38,50,0,5.75,US,1710200964
95,chibougamau,49.9168,-74.3659,19.02,93,100,10.36,CA,1710200964
96,whitehorse,60.7161,-135.0538,32.81,51,75,8.05,CA,1710200964
97,howard springs,-12.497,131.047,78.87,97,100,5.32,AU,1710200965
98,severo-yeniseyskiy,60.3725,93.0408,10.58,97,100,1.99,RU,1710200965
99,port elizabeth,-33.918,25.5701,73.31,99,100,3.44,ZA,1710200965
100,shihezi,44.3,86.0333,25.34,91,45,0.69,CN,1710200966
101,constantia,44.1833,28.65,47.08,88,100,15.21,RO,1710200966
102,port macquarie,-31.4333,152.9167,79.9,54,49,4.92,AU,1710200966
103,porto novo,6.4965,2.6036,81.95,86,55,5.68,BJ,1710200967
104,hawaiian paradise park,19.5933,-154.9731,73.04,90,75,8.05,US,1710200967
105,stanley,54.868,-1.6985,40.28,97,100,2.3,GB,1710200856
106,karwar,14.8,74.1333,74.5,73,0,3.06,IN,1710200968
107,northam,51.0333,-4.2167,47.66,94,100,10.56,GB,1710200969
108,bredasdorp,-34.5322,20.0403,66.29,94,29,6.73,ZA,1710200969
109,saipan,15.1355,145.701,83.1,69,40,19.57,MP,1710200970
110,happy valley-goose bay,53.3168,-60.3315,28.71,80,100,24.16,CA,1710200970
111,lucea,18.451,-78.1736,82.26,77,4,6.26,JM,1710200971
112,heihe,50.2441,127.4902,9.18,89,94,2.84,CN,1710200972
113,punta arenas,-53.15,-70.9167,51.91,71,40,5.75,CL,1710200834
114,burnie,-41.0667,145.9167,70.45,50,23,10.16,AU,1710200974
115,hadibu,12.65,54.0333,78.26,76,4,6.29,YE,1710200976
116,utrik,11.2278,169.8474,79.81,82,97,23.44,MH,1710200977
117,west island,-12.1568,96.8225,80.58,78,100,13.8,CC,1710200980
118,conception bay south,47.4999,-52.9981,35.92,98,100,33.02,CA,1710200783
119,gouyave,12.1646,-61.7296,79.52,81,31,14.65,GD,1710200990
120,belyy yar,53.6039,91.3903,31.89,80,0,13.42,RU,1710200992
121,burao,9.5221,45.5336,71.67,70,0,9.91,SO,1710200992
122,kodiak,57.79,-152.4072,26.11,63,100,13.8,US,1710200992
123,mata-utu,-13.2816,-176.1745,85.05,77,68,9.44,WF,1710200993
124,yangjiang,21.85,111.9667,63.82,81,2,7.85,CN,1710200993
125,wailua homesteads,22.0669,-159.378,79.23,76,75,13.8,US,1710200995
126,tahlequah,35.9154,-94.97,69.08,36,0,5.75,US,1710200998
127,st. john's,47.5649,-52.7093,36.16,97,100,29.93,CA,1710200743
128,puerto natales,-51.7236,-72.4875,44.69,91,89,0.09,CL,1710201010
129,mounana,-1.4085,13.1586,73.72,94,79,2.68,GA,1710201011
130,taksimo,56.3444,114.8794,12.4,86,78,2.46,RU,1710201012
131,cradock,-32.1642,25.6192,72.03,53,0,4.23,ZA,1710201023
132,ofunato,39.0717,141.7167,47.97,49,100,3.51,JP,1710201024
133,conde,-7.2597,-34.9075,83.66,79,20,8.05,BR,1710201026
134,bethanie,-26.4833,17.15,80.28,25,47,2.86,NA,1710201027
135,labytnangi,66.6572,66.4183,-22.63,96,56,3.42,RU,1710201029
136,ballina,-28.8667,153.5667,74.79,54,55,10.09,AU,1710201030
137,santana,-0.0583,-51.1817,80.78,89,0,3.44,BR,1710201030
138,bosaso,11.2842,49.1816,80.04,65,2,6.35,SO,1710201031
139,sao vicente,-23.9631,-46.3919,78.94,47,17,5.99,BR,1710201032
140,malangali,-8.5667,34.85,64.94,95,100,3.56,TZ,1710201032
141,san patricio,28.017,-97.5169,71.55,69,91,12.21,US,1710201033
142,igrim,63.1906,64.4162,-11.47,100,94,3.04,RU,1710201033
143,la foa,-21.7108,165.8276,79.32,84,100,6.87,NC,1710201034
144,fale old settlement,-9.3852,-171.2468,85.87,75,96,13.78,TK,1710201034
145,senillosa,-39.0,-68.4167,80.38,21,0,9.8,AR,1710201035
146,kotlas,61.2611,46.6556,27.05,91,90,7.0,RU,1710201035
147,huarmey,-10.0681,-78.1522,74.66,81,87,10.2,PE,1710201035
148,karratha,-20.7377,116.8463,83.28,68,86,10.42,AU,1710201036
149,iskateley,67.6803,53.1512,-4.99,98,62,5.99,RU,1710201036
150,dudinka,69.4058,86.1778,-19.32,100,99,4.0,RU,1710201036
151,kenai,60.5544,-151.2583,28.49,82,100,11.5,US,1710200767
152,olonkinbyen,70.9221,-8.7187,28.35,93,100,15.03,SJ,1710201037
153,ad darb,17.7229,42.2526,85.78,62,8,4.92,SA,1710201037
154,palmer,42.1584,-72.3287,41.63,41,42,5.99,US,1710201034
155,talnakh,69.4865,88.3972,-15.99,98,100,5.95,RU,1710201038
156,luau,-10.7073,22.2247,65.88,98,93,2.57,AO,1710201038
157,petropavlovsk-kamchatsky,53.0452,158.6483,25.39,95,75,8.01,RU,1710201038
158,grand-bassam,5.2118,-3.7388,84.16,87,64,3.94,CI,1710201038
159,yelizovo,53.1873,158.3805,26.74,79,75,2.24,RU,1710201039
160,tralee,52.2704,-9.7026,52.03,89,100,16.04,IE,1710201039
161,kupino,54.3663,77.2981,-2.18,100,95,5.5,RU,1710201039
162,tolanaro,-25.0319,46.9987,78.87,94,20,18.41,MG,1710201039
163,ouargla,31.9493,5.325,61.45,28,62,9.89,DZ,1710201039
164,ust-nera,64.5667,143.2,-12.19,96,77,2.93,RU,1710201040
165,balta,47.9355,29.6198,39.16,77,100,16.93,UA,1710201040
166,kalach,50.4258,41.0261,23.99,76,50,7.38,RU,1710201040
167,igarka,67.4667,86.5833,-21.17,100,98,3.33,RU,1710201041
168,blackpool,53.8167,-3.05,44.89,83,100,8.43,GB,1710201041
169,port lincoln,-34.7333,135.8667,71.58,74,100,10.22,AU,1710201041
170,aasiaat,68.7098,-52.8699,-4.0,99,65,0.83,GL,1710201041
171,sao joao da barra,-21.6403,-41.0511,78.89,89,32,11.74,BR,1710200827
172,morehead city,34.7229,-76.726,57.25,45,0,10.36,US,1710201042
173,san clemente del tuyu,-36.3569,-56.7235,68.99,87,73,12.86,AR,1710201042
174,greenville,35.6127,-77.3663,57.36,35,0,0.0,US,1710200934
175,vila franca do campo,37.7167,-25.4333,64.89,99,100,13.87,PT,1710200865
176,slonim,53.0867,25.3219,31.6,70,94,12.86,BY,1710201043
177,aykhal,66.0,111.5,-5.93,100,97,5.39,RU,1710201043
178,ndola,-12.9587,28.6366,63.77,95,100,3.02,ZM,1710201043
179,cidreira,-30.1811,-50.2056,72.52,77,33,15.7,BR,1710201043
180,alice springs,-23.7,133.8833,87.35,30,2,9.22,AU,1710201044
181,lander,42.833,-108.7307,53.11,25,0,16.11,US,1710201044
182,usogorsk,63.4106,48.6872,-3.12,100,92,3.09,RU,1710201044
183,santa cruz,-17.8,-63.1667,87.85,66,20,13.8,BO,1710201045
184,selfoss,63.9331,-20.9971,28.04,62,34,11.83,IS,1710201045
185,remire-montjoly,4.9167,-52.2667,82.44,83,100,5.75,GF,1710201045
186,vanimo,-2.6741,141.3028,77.18,97,100,6.91,PG,1710201046
187,taroa,8.7058,171.2275,80.62,86,80,23.49,MH,1710201046
188,inhambane,-23.865,35.3833,77.9,86,100,20.89,MZ,1710201046
189,xingtai,37.0631,114.4942,43.14,44,3,2.1,CN,1710201046
190,hwange,-18.3693,26.5019,74.84,55,7,4.79,ZW,1710201046
191,kapa'a,22.0752,-159.319,80.58,77,75,13.8,US,1710201047
192,dortyol,36.8616,36.2289,52.0,63,37,2.33,TR,1710201047
193,sechura,-5.5569,-80.8222,80.89,64,87,17.56,PE,1710201047
194,prince albert,53.2001,-105.7677,42.75,56,20,6.91,CA,1710201047
195,ust'-barguzin,53.45,108.9833,16.27,98,100,1.68,RU,1710201048
196,gladstone,-23.85,151.25,75.13,88,75,11.5,AU,1710201048
197,sao sebastiao,-23.76,-45.4097,74.25,88,68,3.33,BR,1710201048
198,touros,-5.1989,-35.4608,81.0,86,54,8.46,BR,1710200827
199,atasu,48.6814,71.6433,21.42,96,100,2.46,KZ,1710201049
200,lazaro cardenas,17.9583,-102.2,80.94,55,0,9.06,MX,1710201047
201,bonthe,7.5264,-12.505,78.67,83,96,6.06,SL,1710201049
202,akhaltsikhe,41.639,42.9826,26.6,84,25,2.19,GE,1710201049
203,atafu village,-8.5421,-172.5159,86.14,73,53,15.23,TK,1710201050
204,nguigmi,14.2495,13.1092,82.0,18,23,13.0,NE,1710201050
205,pimentel,-6.8367,-79.9342,79.09,65,0,19.57,PE,1710201050
206,udachny,66.4167,112.4,-1.55,91,95,5.26,RU,1710201051
207,ulladulla,-35.35,150.4667,81.99,33,42,4.0,AU,1710201051
208,aripuana,-9.1667,-60.6333,81.46,78,100,1.74,BR,1710201051
209,chalala,21.4167,71.1667,72.61,64,0,8.48,IN,1710201051
210,tadjourah,12.0,42.5,76.37,73,1,8.14,DJ,1710201051
211,peace river,56.2501,-117.286,48.51,42,75,4.61,CA,1710201052
212,bardai,11.65,7.2333,80.82,15,69,9.71,NG,1710201052
213,mungwi,-10.1732,31.3694,63.93,98,99,0.4,ZM,1710201052
214,tegueste,28.5167,-16.3167,56.98,91,0,7.0,ES,1710201052
215,kapuskasing,49.4169,-82.4331,39.2,41,75,8.05,CA,1710201053
216,maun,-19.9833,23.4167,70.57,35,0,5.95,BW,1710201053
217,mezhdurechenskiy,59.6,65.9333,7.18,98,100,1.54,RU,1710201053
218,acarau,-2.8856,-40.12,80.42,86,20,7.14,BR,1710200916
219,tobelo,1.7284,128.0095,80.26,76,86,5.5,ID,1710201054
220,brades,16.7918,-62.2106,79.74,71,1,14.72,MS,1710201054
221,mora,11.0461,14.1401,84.94,14,99,3.69,CM,1710201054
222,holalkere,14.0333,76.1833,74.12,65,21,2.08,IN,1710201055
223,bara,10.3744,10.7288,88.18,12,100,8.88,NG,1710201055
224,hithadhoo,-0.6,73.0833,82.67,67,45,4.54,MV,1710201055
225,al hazm,16.1641,44.7769,77.68,47,31,7.9,YE,1710201055
226,puerto baquerizo moreno,-0.9,-89.6,81.93,74,31,3.94,EC,1710201025
227,palikir - national government center,6.9248,158.1611,85.05,74,100,17.27,FM,1710201056
228,manavalakurichi,8.1333,77.3,77.47,73,5,7.29,IN,1710201056
229,ulanhot,46.0833,122.0833,28.81,46,7,8.68,CN,1710201056
230,arkhangel'sk,64.5401,40.5433,23.11,100,100,2.24,RU,1710201057
231,miyaly,48.8844,53.7836,16.52,93,88,13.71,KZ,1710201057
232,kambove,-10.8764,26.5969,63.3,97,100,3.44,CD,1710201057
233,zliten,32.4674,14.5687,58.82,80,0,2.15,LY,1710201057
234,suez,29.9737,32.5263,58.39,60,0,7.45,EG,1710201058
235,viedma,-40.8135,-62.9967,67.01,51,1,13.13,AR,1710201035
236,vorgashor,67.5833,63.95,-15.02,100,100,7.18,RU,1710201058
237,totness,5.8833,-56.3167,79.81,82,23,9.89,SR,1710201059
238,port alfred,-33.5906,26.891,74.17,95,8,1.01,ZA,1710201059
239,tabou,4.423,-7.3528,81.34,90,86,5.95,CI,1710201059
240,villa emilio carranza,19.9667,-96.6,72.12,81,47,2.53,MX,1710201060
241,reggane,26.7158,0.1714,72.5,23,8,9.91,DZ,1710201060
242,kattivakkam,13.2167,80.3167,78.89,80,32,8.68,IN,1710201060
243,tura,25.5198,90.2201,62.76,39,0,3.04,IN,1710201061
244,sabang,5.8933,95.3214,82.72,68,26,10.69,ID,1710201061
245,takoradi,4.8845,-1.7554,81.5,88,92,6.42,GH,1710201061
246,kavalerovo,44.2661,135.0572,26.55,66,20,4.59,RU,1710201061
247,cozumel,20.5083,-86.9458,82.02,83,30,11.01,MX,1710200958
248,puerto penasco,31.3167,-113.5333,69.91,62,4,4.0,MX,1710201062
249,elverum,60.8819,11.5623,11.61,100,99,2.39,NO,1710201062
250,tazacorte,28.629,-17.9293,61.77,81,75,4.0,ES,1710201062
251,salahonda,2.1019,-78.7217,81.03,86,51,6.8,CO,1710201063
252,bogande,12.9714,-0.1436,87.28,14,18,2.37,BF,1710201063
253,vilhena,-12.7406,-60.1458,75.42,88,75,4.61,BR,1710201063
254,afaahiti,-17.75,-149.2833,85.87,82,94,7.72,PF,1710201063
255,katerini,40.2719,22.5025,58.51,100,98,1.99,GR,1710201064
256,grand baie,-20.0182,57.5802,79.27,87,97,13.6,MU,1710201064
257,bubaque,11.2833,-15.8333,79.95,64,9,17.36,GW,1710201064
258,burang,30.25,81.1667,3.09,90,61,3.56,CN,1710201065
259,gangneung,37.7556,128.8961,39.76,80,72,8.48,KR,1710201065
260,kavieng,-2.5744,150.7967,81.72,84,100,12.44,PG,1710201065
261,pionerskiy,54.9508,20.2275,43.14,88,100,19.48,RU,1710201065
262,catalina,32.5056,-110.9211,75.6,22,53,3.0,US,1710201066
263,mugia,43.1041,-9.2179,53.91,85,93,11.77,ES,1710201066
264,lerwick,60.1545,-1.1494,41.0,96,100,17.67,GB,1710201066
265,ust'-ilimsk,58.0006,102.6619,18.45,96,97,5.99,RU,1710200934
266,redencao,-4.2258,-38.7306,76.89,93,30,3.98,BR,1710201067
267,verkhnevilyuysk,63.4453,120.3167,19.47,96,100,6.35,RU,1710201067
268,azna,33.6095,48.9307,35.87,90,21,0.58,IR,1710201067
269,el calafate,-50.3408,-72.2768,47.16,78,81,5.73,AR,1710201068
270,mount isa,-20.7333,139.5,85.77,45,5,12.66,AU,1710201068
271,ust-tsilma,65.441,52.1498,-15.39,100,90,1.99,RU,1710201068
272,rio gallegos,-51.6226,-69.2181,51.85,66,20,21.85,AR,1710201068
273,port blair,11.6667,92.75,73.44,88,40,2.3,IN,1710201069
274,castillos,-34.1667,-53.8333,70.43,77,100,8.68,UY,1710201069
275,qingdao,36.0986,120.3719,35.2,93,0,8.95,CN,1710201070
276,walvis bay,-22.9575,14.5053,67.15,82,71,8.05,NA,1710201070
277,hammerfest,70.6634,23.6821,36.05,87,75,13.8,NO,1710201070
278,portland,45.5234,-122.6762,49.44,90,100,10.36,US,1710200493
279,embi,48.8264,58.1442,20.12,95,99,12.86,KZ,1710201071
280,gaalkacyo,6.7697,47.4308,74.43,91,13,9.46,SO,1710201071
281,saint-pierre,-21.3393,55.4781,76.68,78,24,5.75,RE,1710200930
282,kitui,-1.367,38.0106,65.86,75,33,4.07,KE,1710201071
283,chinsali,-10.5414,32.0816,64.83,98,100,0.98,ZM,1710201072
284,jaisalmer,26.9147,70.9181,68.76,29,0,7.14,IN,1710201072
285,brisas de zicatela,15.8369,-97.0419,81.48,73,12,5.28,MX,1710201072
286,derbent,42.0678,48.2899,36.95,78,100,13.2,RU,1710201072
287,pasighat,28.0667,95.3333,68.04,51,77,1.99,IN,1710201073
288,merizo village,13.2658,144.6691,83.98,80,100,20.47,GU,1710201073
289,yuzhno-kurilsk,44.0306,145.8556,31.37,65,96,0.92,RU,1710201073
290,ntungamo,-0.8833,29.65,64.4,91,52,3.91,UG,1710201073
291,pitimbu,-7.4706,-34.8086,84.79,79,14,11.45,BR,1710201074
292,songyang,34.4553,113.0281,47.32,38,1,5.44,CN,1710201074
293,la paz,-16.5,-68.15,53.58,87,75,4.61,BO,1710200845
294,lively,46.4334,-81.1498,38.32,70,53,5.26,CA,1710201074
295,sandnessjoen,66.0217,12.6316,18.12,64,83,10.98,NO,1710201075
296,bikenibeu village,1.3673,173.1241,87.76,79,75,12.66,KI,1710201075
297,grand rapids,42.9634,-85.6681,61.18,36,40,19.57,US,1710200910
298,cide,41.8921,33.0044,50.94,72,99,7.27,TR,1710201075
299,deqen,29.9618,90.7188,29.43,60,34,2.57,CN,1710201075
300,nuku'alofa,-21.1333,-175.2,84.54,79,75,9.22,TO,1710201076
301,ploudalmezeau,48.5333,-4.65,50.38,93,100,13.8,FR,1710201076
302,san jose del guaviare,2.5729,-72.6459,75.87,93,58,1.57,CO,1710201076
303,ciudad acuna,29.3232,-100.9522,81.18,34,0,17.27,MX,1710201076
304,lata,40.1629,-8.3327,47.07,95,3,2.59,PT,1710201077
305,ancud,-41.8697,-73.8203,57.15,94,100,16.91,CL,1710200855
306,calama,-22.4667,-68.9333,75.69,13,0,20.71,CL,1710201077
307,gadzhiyevo,69.2551,33.3362,27.77,87,98,16.2,RU,1710201077
308,kholmsk,47.0511,142.0569,29.61,67,92,15.19,RU,1710201078
309,haiku-pauwela,20.9219,-156.3051,74.25,75,40,17.27,US,1710201078
310,christchurch,-43.5333,172.6333,68.54,77,100,17.27,NZ,1710200836
311,new norfolk,-42.7826,147.0587,61.92,52,65,6.02,AU,1710201078
312,roma,43.2128,-75.4557,38.57,53,20,20.71,US,1710201079
313,skeldon,5.8833,-57.1333,77.88,83,11,7.0,GY,1710201079
314,horta,38.5333,-28.6333,60.03,91,32,14.0,PT,1710200824
315,cole harbour,44.6724,-63.4751,35.92,97,100,5.01,CA,1710201080
316,constantina,36.365,6.6147,42.15,92,1,4.27,DZ,1710201081
317,rikaze,29.25,88.8833,31.44,55,0,3.02,CN,1710201081
318,turkmenbasy,40.0222,52.9552,43.57,87,40,9.22,TM,1710201082
319,gizo,-8.103,156.8419,81.82,85,100,13.73,SB,1710201082
320,vila velha,-20.3297,-40.2925,78.94,84,20,9.22,BR,1710201082
321,champerico,14.3,-91.9167,93.74,68,0,10.76,GT,1710201083
322,jaunpur,25.7333,82.6833,64.42,31,0,4.72,IN,1710201084
323,amga,60.8953,131.9608,-2.67,99,100,1.97,RU,1710201084
324,buritis,-15.6178,-46.4233,79.74,73,99,1.7,BR,1710201085
325,phang nga,8.4509,98.5298,75.24,82,40,2.51,TH,1710201085
326,isola di capo rizzuto,38.96,17.0933,52.18,75,37,17.87,IT,1710201086
327,el granada,37.5027,-122.4694,61.61,66,0,17.27,US,1710201087
328,turaif,31.6725,38.6637,48.45,40,0,6.91,SA,1710201088
329,thunder bay,48.4001,-89.3168,44.58,52,0,9.22,CA,1710200945
330,achinsk,56.2694,90.4993,18.86,90,98,12.62,RU,1710201088
331,al ghayzah,16.2079,52.176,77.54,85,14,7.14,YE,1710201089
332,al wajh,26.2455,36.4525,71.55,21,0,5.75,SA,1710201089
333,daniel flores,9.3355,-83.6694,75.33,81,48,1.86,CR,1710201090
334,springbok,-29.6643,17.8865,67.62,39,2,2.24,ZA,1710201090
335,trincomalee,8.5711,81.2335,80.08,72,79,6.73,LK,1710201091
336,sisimiut,66.9395,-53.6735,8.4,88,32,7.43,GL,1710201092
337,gamba,-2.65,10.0,80.89,86,89,5.17,GA,1710201092
338,ouani,-12.1322,44.4258,82.35,80,99,7.11,KM,1710201093
339,port alberni,49.2413,-124.8028,45.12,95,100,3.0,CA,1710201093
340,aswan,24.0934,32.907,70.9,18,0,5.75,EG,1710201094
341,mar del plata,-38.0023,-57.5575,69.94,83,0,4.61,AR,1710201094
342,suva,-18.1416,178.4415,80.08,89,75,0.0,FJ,1710201095
343,mogoytuy,51.2833,114.9167,24.17,79,96,12.24,RU,1710201096
344,dampit,-8.2116,112.7493,74.26,84,100,2.95,ID,1710201096
345,nova sintra,14.8667,-24.7167,68.31,72,50,7.2,CV,1710201096
346,amursk,50.2261,136.8994,16.36,79,99,3.11,RU,1710201097
347,talara,-4.5772,-81.2719,83.16,65,75,11.5,PE,1710201097
348,antalaha,-14.9003,50.2788,75.47,89,82,6.04,MG,1710201098
349,santa rosa de osos,6.6474,-75.4603,68.47,98,53,1.79,CO,1710201098
350,chos malal,-37.3781,-70.2709,66.79,19,14,10.6,AR,1710201098
351,klyuchi,52.2667,79.1667,11.68,97,66,3.24,RU,1710201099
352,alaghsas,17.0187,8.0168,82.04,9,22,13.6,NE,1710201099
353,nassau,40.7507,-73.5829,50.05,28,0,14.97,US,1710200846
354,amalapuram,16.5833,82.0167,72.61,92,1,1.63,IN,1710201100
355,pisco,-13.7,-76.2167,75.25,73,0,20.71,PE,1710201100
356,martuk,50.7475,56.5056,22.06,95,100,17.11,KZ,1710201100
357,xam nua,20.4197,104.0439,57.36,91,15,1.79,LA,1710201100
358,maumere,-8.6199,122.2111,79.52,83,100,1.59,ID,1710201101
359,enewetak,11.3474,162.3373,80.02,78,81,21.16,MH,1710201101
360,turinsk,58.0458,63.696,-6.59,100,71,3.56,RU,1710201101
361,kachkanar,58.7,59.4948,-12.57,100,68,3.87,RU,1710201101
362,t'ongch'on-up,38.9539,127.8917,39.54,89,77,5.61,KP,1710201102
363,maputo,-25.9653,32.5892,80.28,83,75,8.05,MZ,1710200871
364,namibe,-15.1961,12.1522,77.95,76,100,2.64,AO,1710201102
365,montgomery,39.1501,-77.1997,52.95,33,0,16.11,US,1710200574
366,at taj,24.2049,23.2857,64.02,17,1,10.94,LY,1710201103
367,tingo maria,-9.2895,-76.0088,73.2,97,100,1.9,PE,1710201103
368,alofi,-19.0595,-169.9187,78.69,94,20,3.44,NU,1710201103
369,taro,-8.3862,115.28,71.6,87,100,2.8,ID,1710201103
370,toledo,39.8333,-4.0,43.66,80,27,2.01,ES,1710201104
371,puerto madero,14.7208,-92.4215,83.5,68,0,5.7,MX,1710201104
372,zeya,53.75,127.2667,9.12,84,64,1.74,RU,1710200917
373,coahuayana de hidalgo,18.7,-103.6583,81.25,52,14,4.79,MX,1710201104
374,hotan,37.0997,79.9269,47.48,27,100,4.21,CN,1710201104
375,flying fish cove,-10.4217,105.6791,80.28,83,100,18.41,CX,1710201105
376,feijo,-8.1642,-70.3536,78.71,89,90,2.62,BR,1710201105
377,vadso,70.0744,29.7487,35.76,87,75,13.8,NO,1710201105
378,galliano,29.4422,-90.2992,64.4,52,0,3.44,US,1710201105
379,naze,28.3667,129.4833,59.92,70,100,24.25,JP,1710201106
380,amahai,-3.3333,128.9167,82.38,76,100,3.6,ID,1710201106
381,saint-joseph,-21.3667,55.6167,75.58,85,22,11.5,RE,1710201106
382,kuta,-8.7233,115.1723,78.75,100,20,3.44,ID,1710201106
383,sungai raya,0.7,108.9,77.4,91,100,7.83,ID,1710201107
384,nantucket,41.2835,-70.0995,42.94,49,0,29.93,US,1710201107
385,broken hill,-31.95,141.4333,88.2,23,8,12.17,AU,1710200894
386,la manga del mar menor,37.6413,-0.7165,58.26,54,0,8.05,ES,1710201107
387,yashkul',46.1711,45.3435,25.38,67,1,5.7,RU,1710201108
388,chenzhou,25.8,113.0333,54.97,77,6,2.08,CN,1710201108
389,gubkinskiy,64.434,76.5026,-10.75,100,99,3.11,RU,1710201108
390,poronaysk,49.2167,143.1167,21.24,89,100,2.37,RU,1710201108
391,den helder,52.9599,4.7593,44.98,94,100,2.3,NL,1710201084
392,ponta delgada,37.7333,-25.6667,65.19,88,75,25.32,PT,1710201109
393,howrah,22.5892,88.3103,77.0,88,1,0.0,IN,1710201109
394,arti,56.4234,58.5328,-6.86,100,96,2.77,RU,1710201109
395,nuuk,64.1835,-51.7216,30.81,59,0,3.44,GL,1710201110
396,pindushi,62.9152,34.58,15.33,98,64,4.43,RU,1710201110
397,port hedland,-20.3167,118.5667,86.05,79,87,11.5,AU,1710200942
398,sealy,29.7808,-96.1572,70.86,62,24,3.0,US,1710201110
399,staryye ozinki,51.1786,49.6769,13.19,95,44,8.23,RU,1710201111
400,garh maharaja,30.8339,71.9053,60.49,34,16,5.28,PK,1710201111
401,camalu,30.85,-116.0667,66.65,68,17,18.88,MX,1710201111
402,yorkton,51.2167,-102.4677,39.04,75,0,11.5,CA,1710201111
403,morondava,-20.2833,44.2833,78.21,87,100,6.17,MG,1710201112
404,dunedin,-45.8742,170.5036,61.23,67,94,10.83,NZ,1710200861
405,itaituba,-4.2761,-55.9836,76.57,98,66,2.19,BR,1710201112
406,gornyy,55.1153,83.9059,7.0,99,98,6.96,RU,1710201112
407,bodo,67.28,14.405,29.77,76,0,6.91,NO,1710201112
408,lompoc,34.6391,-120.4579,62.78,70,40,14.97,US,1710201113
409,centralia,46.7162,-122.9543,47.95,94,75,11.5,US,1710200850
410,rurrenabaque,-14.4413,-67.5278,81.32,81,87,1.63,BO,1710201113
411,sitka,57.0531,-135.33,44.49,53,100,14.97,US,1710201113
412,chapaev,50.2,51.1667,15.17,88,37,9.26,KZ,1710201114
413,hailin,44.5833,129.4167,21.2,84,56,2.98,CN,1710201114
414,holualoa,19.6228,-155.9522,73.24,82,100,8.05,US,1710201114
415,dwarka,22.2394,68.9678,72.5,82,0,11.79,IN,1710201114
416,ak-suu,42.4995,78.527,30.42,56,96,8.1,KG,1710201115
417,al jawf,29.5,38.75,54.86,33,0,8.19,SA,1710201115
418,as sulayyil,20.4607,45.5779,80.85,31,39,8.99,SA,1710201115
419,luebo,-5.35,21.4167,69.96,98,100,2.08,CD,1710201116
420,armacao de buzios,-22.7469,-41.8817,80.65,89,6,7.87,BR,1710201116
421,egilsstadir,65.2653,-14.3948,31.91,93,75,10.36,IS,1710201116
422,bodaybo,57.8506,114.1933,24.15,91,99,7.34,RU,1710201116
423,byron bay,-28.65,153.6167,74.71,54,58,9.95,AU,1710201116
424,quellon,-43.1167,-73.6167,56.43,94,100,17.96,CL,1710201117
425,carloforte,39.145,8.3058,55.58,74,18,23.0,IT,1710201117
426,puerto deseado,-47.7503,-65.8938,55.06,68,34,25.03,AR,1710201117
427,ugoofaaru,5.6667,73.0,82.31,77,50,5.73,MV,1710201117
428,weihai,37.5017,122.1136,38.39,74,27,15.88,CN,1710201118
429,bechar,31.6167,-2.2167,57.83,37,40,4.32,DZ,1710201118
430,kidal,18.4411,1.4078,84.02,10,61,11.81,ML,1710201118
431,iglino,54.8324,56.4126,1.49,100,98,1.05,RU,1710201119
432,north battleford,52.7834,-108.2847,39.29,60,0,9.22,CA,1710201119
433,hobyo,5.3505,48.5268,82.11,81,14,9.46,SO,1710201119
434,pacific grove,36.6177,-121.9166,59.23,73,20,9.22,US,1710201119
435,nkhotakota,-12.9274,34.2961,73.99,87,100,3.31,MW,1710201119
436,teluk nibung,3.001,99.8164,76.51,91,27,4.34,ID,1710201120
437,novobelokatay,55.7062,58.9549,0.3,100,100,2.35,RU,1710201120
438,chulym,55.0997,80.9572,0.14,100,83,6.33,RU,1710201121
439,nelson bay,-32.7167,152.15,82.09,57,8,1.99,AU,1710201121
440,mukalla,14.5425,49.1242,79.2,82,3,4.72,YE,1710201121
441,abeche,13.8292,20.8324,83.16,13,75,7.78,TD,1710201121
442,kununurra,-15.7667,128.7333,80.58,89,100,11.5,AU,1710201122
443,san antonio de pale,-1.4014,5.6325,84.24,77,49,8.41,GQ,1710201122
444,dire,12.2833,-10.9667,85.55,14,44,1.32,ML,1710201122
445,alesund,62.4723,6.1549,37.33,71,20,1.14,NO,1710201122
446,garoowe,8.4054,48.4845,70.23,91,0,7.7,SO,1710201123
447,spanish wells,26.323,-81.7957,78.84,52,0,6.91,US,1710201123
448,tromso,69.6496,18.957,33.82,93,100,4.61,NO,1710201123
449,salinopolis,-0.6136,-47.3561,80.08,87,99,7.07,BR,1710200968
450,arteche,12.2645,125.4048,79.52,83,91,9.86,PH,1710201124
451,jaleshwar,26.6471,85.8008,62.04,38,0,6.02,NP,1710201124
452,usinsk,65.9939,57.5281,-14.93,100,93,5.01,RU,1710201124
453,'alaqahdari dishu,30.4374,63.313,63.32,56,8,7.76,AF,1710201125
454,pagar alam,-4.0167,103.2667,67.75,88,99,3.31,ID,1710201125
455,okhotsk,59.3833,143.3,1.81,78,65,15.21,RU,1710201126
456,santa elena de uairen,4.6167,-61.1333,81.23,42,90,2.55,VE,1710201126
457,freetown,8.484,-13.2299,82.11,65,63,12.66,SL,1710201126
458,tyukhtet,56.5389,89.3011,17.28,90,100,11.88,RU,1710201126
459,dul'durga,50.6761,113.5931,23.72,75,88,5.5,RU,1710201127
460,madang,-5.2246,145.7966,81.64,82,100,8.63,PG,1710201127
461,ta`u,-14.2336,-169.5144,84.4,72,78,5.5,AS,1710201127
462,tamanrasset,22.785,5.5228,66.15,12,19,0.58,DZ,1710201128
463,kuqa,41.7278,82.9364,44.26,37,53,6.46,CN,1710201128
464,makungu,-8.7333,35.2833,66.4,99,100,2.3,TZ,1710201128
465,kargasok,59.0556,80.8572,-6.03,100,80,4.0,RU,1710201128
466,east london,-33.0153,27.9116,75.42,88,4,16.96,ZA,1710201128
467,saint-felicien,48.6501,-72.4491,25.48,86,100,20.71,CA,1710201129
468,mount gambier,-37.8333,140.7667,67.08,76,100,12.44,AU,1710201129
469,lospalos,-8.5186,127.0025,74.52,94,100,10.76,TL,1710201129
470,porto seguro,-16.4497,-39.0647,82.92,83,20,8.05,BR,1710201130
471,corn island,12.1694,-83.0418,81.23,84,6,22.41,NI,1710201130
472,awjilah,29.1081,21.2869,64.76,20,0,11.34,LY,1710201130
473,grosseto,42.8333,11.25,50.16,81,40,2.3,IT,1710201130
474,rudbar,30.15,62.6,66.13,49,10,9.95,AF,1710201131
475,codrington,-38.2667,141.9667,65.26,80,100,16.46,AU,1710201131
476,pacasmayo,-7.4006,-79.5714,75.67,75,70,14.25,PE,1710201131
477,nosy varika,-20.5833,48.5333,74.91,93,92,5.35,MG,1710201131
478,menongue,-14.6585,17.691,64.76,76,50,2.1,AO,1710201132
479,dongcun,36.7767,121.1597,41.38,65,56,13.47,CN,1710201132
480,lorengau,-2.0226,147.2712,82.42,84,100,11.74,PG,1710201132
481,hrib-loski potok,45.7011,14.5911,41.41,94,100,4.76,SI,1710201133
482,kalamansig,6.5519,124.0511,82.36,53,51,2.75,PH,1710201133
483,abilene,32.4487,-99.7331,71.82,33,0,17.27,US,1710201133
484,sungailiat,-1.85,106.1333,79.25,87,99,10.04,ID,1710201134
485,richards bay,-28.783,32.0377,73.36,96,47,6.6,ZA,1710201134
486,qamdo,31.1667,97.2333,22.37,50,96,6.22,CN,1710201134
487,erdenet,49.0333,104.0833,10.13,87,89,3.24,MN,1710201134
488,fort mcmurray,56.7268,-111.381,38.79,56,0,5.75,CA,1710200916
489,kodinsk,58.6881,99.1844,19.44,97,100,3.98,RU,1710201135
490,princeville,45.7668,-61.2985,34.92,95,100,11.5,CA,1710201135
491,port antonio,18.18,-76.4612,85.91,71,0,2.98,JM,1710201136
492,las khorey,11.1595,48.1967,81.03,71,4,6.76,SO,1710201136
493,formosa do rio preto,-11.0483,-45.1931,77.2,66,54,1.03,BR,1710201136
494,baykal'sk,51.5058,104.1469,24.1,85,61,6.35,RU,1710201137
495,pangody,65.85,74.4859,-24.95,100,99,4.23,RU,1710201137
496,neiafu,-18.65,-173.9833,83.08,89,100,11.5,TO,1710201138
497,cill airne,52.05,-9.5167,52.83,95,100,13.67,IE,1710201138
498,fyodorovka,53.6314,62.7078,1.65,98,98,4.83,KZ,1710201138
499,crane,31.3974,-102.3501,72.03,25,46,14.18,US,1710201139
500,booue,-0.0921,11.9385,75.63,96,63,3.27,GA,1710201139
501,malkerns,-26.5667,31.1833,67.17,95,95,1.43,SZ,1710201139
502,jashpurnagar,22.9,84.15,64.49,37,0,5.68,IN,1710201140
503,nieuw amsterdam,5.8833,-55.0833,82.56,74,20,4.61,SR,1710201141
504,luanco,43.6152,-5.7934,53.58,83,83,4.0,ES,1710201141
505,box elder,41.5005,-112.8764,48.9,48,66,5.1,US,1710201141
506,tsiombe,-25.3,45.4833,75.78,92,93,4.7,MG,1710201142
507,jaru,-10.4389,-62.4664,79.27,88,97,0.89,BR,1710201142
508,quarai,-30.3875,-56.4514,76.1,54,0,12.15,BR,1710200957
509,kralendijk,12.15,-68.2667,82.38,78,40,16.11,BQ,1710201142
510,goldap,54.3063,22.3036,36.72,67,100,15.61,PL,1710201143
511,barrouallie,13.2333,-61.2667,78.42,83,40,6.91,VC,1710201143
512,rouissat,31.9243,5.3502,61.52,28,63,9.6,DZ,1710201143
513,hastings,50.8552,0.5729,46.8,88,100,9.93,GB,1710201143
514,durgapur,23.4833,87.3167,71.76,25,0,2.08,IN,1710201144
515,tarumovka,44.0761,46.5361,29.71,59,30,6.85,RU,1710201144
516,oranjemund,-28.55,16.4333,61.59,97,28,5.48,NA,1710201144
517,chasong,41.4608,126.6414,30.87,68,68,1.88,KP,1710201145
518,mangrol,21.1167,70.1167,72.86,72,0,10.27,IN,1710201145
519,krasnyy chikoy,50.3643,108.7512,11.98,94,62,1.32,RU,1710201145
520,la voulte-sur-rhone,44.8007,4.7716,47.97,88,73,6.35,FR,1710201145
521,floro,61.5996,5.0328,39.27,65,100,8.05,NO,1710201146
522,coaticook,45.1334,-71.7991,31.82,93,100,17.78,CA,1710201146
523,nizhneangarsk,55.7833,109.55,14.0,94,99,3.0,RU,1710201146
524,homer,59.6425,-151.5483,30.07,76,75,5.75,US,1710200851
525,griffith,41.5284,-87.4237,64.26,42,0,16.11,US,1710201146
526,orsa,54.5153,30.4053,27.19,61,21,6.06,BY,1710201147
527,cabo san lucas,22.8909,-109.9124,79.61,64,100,9.22,MX,1710201147
528,as sanamayn,33.0723,36.1838,42.48,43,0,5.35,SY,1710201147
529,keetmanshoop,-26.5833,18.1333,80.44,23,9,5.61,NA,1710201148
530,yatou,37.15,122.3833,40.21,70,53,17.13,CN,1710201148
531,aldan,58.6031,125.3894,14.86,92,100,7.52,RU,1710201148
532,ahus,55.9167,14.2833,37.0,97,100,12.66,SE,1710201148
533,sangueya,10.7,-14.3667,72.99,82,12,3.6,GN,1710201149
534,spring creek,40.7266,-115.5859,49.82,54,70,4.0,US,1710201149
535,peruibe,-24.32,-46.9983,73.18,84,21,3.4,BR,1710201149
536,erie,42.7667,-78.6664,38.21,68,73,5.01,US,1710201013
537,carnota,42.8233,-9.0891,53.74,94,98,5.55,ES,1710201150
538,ciudad lazaro cardenas,17.9583,-102.2,80.94,55,0,9.06,MX,1710201150
539,nouadhibou,20.931,-17.0347,69.78,60,100,12.66,MR,1710201151
540,flekkefjord,58.2971,6.6607,38.95,65,98,14.16,NO,1710201151
541,coquimbo,-29.9533,-71.3436,62.33,82,20,10.36,CL,1710201151
542,pizarro,4.9533,-77.366,79.63,89,81,2.8,CO,1710201152
543,taroudant,30.4703,-8.877,55.51,85,72,2.73,MA,1710201152
544,sao jose da coroa grande,-8.8978,-35.1478,82.9,81,34,10.2,BR,1710201152
545,tianchang,37.9981,114.0156,43.12,41,50,1.99,CN,1710201153
546,corral de bustos,-33.2821,-62.1846,77.36,92,75,6.91,AR,1710201153
547,nanlong,31.3533,106.0631,54.9,73,100,8.21,CN,1710201153
548,madimba,-10.4,40.3333,79.36,79,51,3.44,TZ,1710201153
549,dori,14.0354,-0.0345,89.6,11,39,8.05,BF,1710201154
550,intibuca,14.3167,-88.1667,71.33,60,20,4.61,HN,1710201154
551,luganville,-15.5333,167.1667,85.53,75,100,2.48,VU,1710201154
552,monrovia,6.3005,-10.7969,78.57,91,43,2.35,LR,1710201154
553,hasaki,35.7333,140.8333,48.6,58,100,19.44,JP,1710201155
554,inirida,3.8653,-67.9239,78.01,87,100,2.04,CO,1710201155
555,saint-philippe,-21.3585,55.7679,76.59,88,23,12.68,RE,1710201155
